stop_id,stop_name,stop_desc,stop_lat,stop_lon,zone_id,location_type,parent_station
01118101,Conenna I,"",41.103323,16.932655,01118101,0,
01118103,Conenna III,"",41.105703,16.930975,01118103,0,
01135001,"Colombo, 298","",41.168762,16.734895,01135001,0,
01135002,Colombo-Pansini,"",41.168632,16.738885,01135002,0,
01135104,Colombo-Pansini,"",41.168672,16.738825,01135104,0,
01135105,Colombo-Harris,"",41.169132,16.734295,01135105,0,
01143001,D'Annunzio (Carcere),"",41.135792,16.778785,01143001,0,
01143106,D'Annunzio(CPT),"",41.143872,16.778595,01143106,0,
01189101,Narcisi-Caravella,"",41.160202,16.739055,01189101,0,
01233101,Europa(P. Principi),"",41.132982,16.779355,01233101,0,
01250001,Felicità (Mercato),"",41.146800,16.736400,01250001,0,
01339001,"Macchie, vigna del re","",41.148422,16.770325,"",0,
01378106,Napoli (Chiesa),"",41.162700,16.748600,"",0,
01379102,P. Harris II,"",41.167391,16.730605,01379102,0,
01384103,Nazionale (Miglia ),"",41.154772,16.770745,01384103,0,
01387003,N. Green V,"",41.154772,16.740435,01387003,0,
01452101,Rispetto (giardini),"",41.147300,16.734300,01452101,0,
01509101,Tolleranza-Lealtà,"",41.149262,16.735935,01509101,0,
01522101,Udine-lung. Colombo,"",41.166100,16.747500,01522101,0,
01562103,V.Veneto-Sabotino,"",41.156262,16.765915,01562103,0,
02002001,Accolti Gil (Eurospin),"",41.119200,16.805700,02002001,0,
02002102,Accolti Gil (Amgas),"",41.119872,16.809685,02002102,0,
02024004,Buozzi-str. Deserto,"",41.112262,16.829855,02024004,0,
02037002,Bonomo-Costantino,"",41.131962,16.803085,02037002,0,
02037102,Bonomo-De Benedictis,"",41.130702,16.798705,02037102,0,
02048001,Massa(case Breda),"",41.127002,16.785245,02048001,0,
02112001,Columbo (RFI),"",41.120822,16.822015,02112001,0,
02123003,Corigliano-Columbo,"",41.123082,16.821035,02123003,0,
02141001,D'Alesio I,"",41.127402,16.786635,02141001,0,
02147C00,De Blasi (S. Paolo),"",41.130602,16.797475,02147C00,0,
02150003,De Blasio (C&Carry),"",41.113462,16.799715,02150003,0,
02150006,De Blasio (Lobuono),"",41.116200,16.812600,02150006,0,
02150107,Isotta Fraschini,"",41.111442,16.792295,02150107,0,
02200102,Margherite (ex VV.FF),"",41.103222,16.804055,02200102,0,
02206001,Mimose (Amenduni),"",41.103352,16.789495,02206001,0,
02210002,Regioni-Calitri,"",41.123032,16.793455,02210002,0,
02240010,Europa-Ascianghi,"",41.122592,16.834615,02240010,0,
02240011,Europa-Buozzi,"",41.118342,16.839585,02240011,0,
02241101,Cittadella Scienza,"",41.124282,16.819485,02241101,0,
02242001,Variante Europa I,"",41.124300,16.822900,02242001,0,
02255001,Ferorelli,"",41.110082,16.807715,02255001,0,
02315003,Lindemann-Corigliano,"",41.121592,16.816175,02315003,0,
02319001,Lonero-Tramonte,"",41.129952,16.801215,02319001,0,
02319101,Lonero-Tramonte,"",41.130012,16.801145,02319101,0,
02327101,Lovri,"",41.110852,16.815865,02327101,0,
02408102,Mazzoni-Leotta,"",41.126342,16.800665,02408102,0,
02408103,Mazzoni-Candura,"",41.126062,16.799685,02408103,0,
02458101,Rotondo-Cardinale,"",41.124762,16.779475,02458101,0,
02516106,Arturo Bianco,"",41.125632,16.780275,02516106,0,
03033001,Bartolo (M.Polo),"",41.095743,16.857595,03033001,0,
03051003,Rosalba-D' Aquino,"",41.097603,16.855565,03051003,0,
03094101,S. Caterina II,"",41.098982,16.830255,03094101,0,
03168103,Laurentis-Dioguardi,"",41.096633,16.864335,03168103,0,
03237104,Ennio  (Chiesa),"",41.114803,16.862115,03237104,0,
03279101,"Giovanni XXIII, 19","",41.107163,16.871265,03279101,0,
03299101,R. Kennedy 1E,"",41.100733,16.859115,03299101,0,
03328101,Matarrese-Caccuri,"",41.097853,16.854285,03328101,0,
03393101,Flacco(Policlinico),"",41.110723,16.861855,03393101,0,
03411001,Pio XII (farmacia),"",41.102803,16.859505,03411001,0,
03417005,Pasteur-Chieco,"",41.111413,16.853135,03417005,0,
03507004,Torre Tresca IV,"",41.101563,16.849005,03507004,0,
04066001,Canestrelle,"",41.087023,16.844465,04066001,0,
04132101,Crispi(scuola),"",41.041363,16.847485,04132101,0,
04159001,De Filippo I,"",41.075413,16.854645,04159001,0,
04159002,De Filippo II,"",41.075523,16.857155,04159002,0,
04162002,De Gasperi 342,"",41.083600,16.869100,04162002,0,
04162101,De Gasperi 449/A,"",41.089853,16.869735,04162101,0,
04171101,De Marinis 100,"",41.079213,16.870075,04171101,0,
04303002,Lama Del Duca 2,"",41.073500,16.855200,04303002,0,
04303102,Lama Del Duca 21,"",41.071563,16.855395,04303102,0,
04362001,Minervini 4,"",41.042873,16.851475,04362001,0,
04550004,Veneto (fronte 61),"",41.061123,16.866655,04550004,0,
04550102,Veneto 67,"",41.061200,16.866600,04550102,0,
04550104,Veneto 77,"",41.056983,16.867425,04550104,0,
04550105,Veneto 83,"",41.054343,16.866665,04550105,0,
04558101,Veneto 63/B,"",41.071083,16.871565,04558101,0,
05021004,Archimede 43,"",41.103223,16.904495,05021004,0,
05021104,Archimede 8,"",41.103843,16.903215,05021104,0,
05027002,Bari 16,"",41.085774,16.995566,05027002,0,
05063003,Caldarola 41/C,"",41.106653,16.898325,05063003,0,
05078101,Carabellese-deLiguori,"",41.108313,16.907575,05078101,0,
05097101,Cavalieri V. Veneto II,"",41.108193,16.895555,05097101,0,
05114105,Complanare Est 92,"",41.081500,17.023900,05114105,0,
06162007,"De Gasperi, 278","",41.099953,16.871365,06162007,0,
06162108,"De Gasperi, 429/a","",41.092500,16.870200,06162108,0,
06235002,Einaudi (poste),"",41.100623,16.874275,06235002,0,
06235103,Einaudi-Fanelli,"",41.101533,16.880385,06235103,0,
06249008,Fanelli-Dorso,"",41.103423,16.879135,06249008,0,
06306101,Lattanzio-Nizza,"",41.115700,16.878300,06306101,0,
06402001,Ambasciatori,"",41.106163,16.882375,06402001,0,
06439101,Postiglione-Amendola,"",41.113800,16.880400,06439101,0,
06447101,Re David-Postiglione,"",41.111793,16.876395,06447101,0,
07511001,Perotti,"",41.117163,16.893675,07511001,0,
08003101,Adriatico-Starita,"",41.136772,16.843195,08003101,0,
08129104,Crispi-B. Regina,"",41.121703,16.851085,08129104,0,
08229001,Di Maratona-Mascagni,"",41.129982,16.837915,08229001,0,
08229101,Maratona-Mascagni,"",41.129972,16.837865,08229101,0,
08378104,Napoli (Genio),"",41.127552,16.843285,08378104,0,
08390101,Nicolai-Majer,"",41.120523,16.854845,08390101,0,
08478003,San Girolamo-Corrado,"",41.135942,16.822185,08478003,0,
08478103,San Girolamo-Cimarosa,"",41.137372,16.813505,08478103,0,
08490103,"via Q. Sella, 225","",41.119250,16.864614,08490103,0,
08557101,Vitt.E.Orlando(AQP),"",41.133872,16.843135,08557101,0,
08561001,V.Veneto (AQP),"",41.133752,16.844545,08561001,0,
08561107,Park V.Veneto,"",41.128103,16.855795,08561107,0,
09217101,De Tullio (Porto),"",41.132343,16.868675,09217101,0,
09289102,Terminal Crociere,"",41.135513,16.868135,09289102,0,
09351102,Massari (B),"",41.126800,16.866000,09351102,0,
09369001,Bari Centrale(C),"",41.118100,16.869600,09369001,0,
09435102,Teatro Piccinni,"",41.125213,16.867515,09435102,0,
09556001,V.Emanuele-Sparano,"",41.125993,16.868855,09556001,0,
09556102,Palazzo Economia,"",41.126023,16.868865,09556102,0,
10180003,Ciclamini (Getrag),"",41.106822,16.761565,10180003,0,
10204102,Via delle dalie consorzio asi,"",41.100492,16.766705,10204102,0,
10205102,Magnolie (CMPT),"",41.109702,16.769825,10205102,0,
POL00009,Fermata 9,"",41.113033,16.860025,"",0,
POL00012,Fermata 12,"",41.111153,16.857335,"",0,
01069003,Capitaneo-Nazionale,"",41.158362,16.762265,01069003,0,
01069103,Capitaneo-Ranieri,"",41.154842,16.761435,01069103,0,
01118102,Conenna II,"",41.103853,16.930785,01118102,0,
01135003,Colombo-Malta,"",41.167402,16.744025,01135003,0,
01135C00,Colombo(Lido),"",41.169222,16.732365,01135C00,0,
01143105,D'Annunzio-Ferrari,"",41.135632,16.778785,01143105,0,
01226001,Diaz-Renna,"",41.153400,16.765600,01226001,0,
01339004,"Macchie, civ. 69","",41.147052,16.777125,"",0,
01378006,"Napoli, 114","",41.162882,16.748145,"",0,
01378010,Napoli C dir.Bari,"",41.145952,16.792295,01378010,0,
01378105,"Napoli, 39","",41.161752,16.752515,"",0,
01384107,Nazionale(ponte) II,"",41.153112,16.773895,01384107,0,
01387001,N. Green I,"",41.157742,16.739705,01387001,0,
01387002,N. Green III,"",41.156582,16.740315,01387002,0,
01522102,Udine-Napoli,"",41.163632,16.746685,01522102,0,
02024002,Vill. dei Lavoratori,"",41.107812,16.822465,02024002,0,
02048002,Massa-Don Gnocchi,"",41.128300,16.785900,02048002,0,
02048103,Massa(case Breda),"",41.126932,16.785215,02048103,0,
02123101,Corigliano (R. Puglia),"",41.123072,16.820825,02123101,0,
02150002,De Blasio ( ENEL),"",41.112512,16.796295,02150002,0,
02200002,x,"",41.103212,16.804165,02200002,0,
02200103,Margherite (Firestone),"",41.103212,16.795865,02200103,0,
02202003,Camelie (SKF),"",41.109282,16.796715,02202003,0,
02202103,Pioneri(Medacciai),"",41.105800,16.804600,02202103,0,
02206002,Mimose (Agrilevante),"",41.108492,16.788785,02206002,0,
02210102,Regioni-Fiore,"",41.123172,16.793375,02210102,0,
02210103,Regioni-Cascella,"",41.121732,16.787905,02210103,0,
02240006,Europa-Mirizzi,"",41.123222,16.804245,02240006,0,
02240008,Europa(Lamasinata),"",41.124112,16.826845,02240008,0,
02287C00,Dep.Amtab,"",41.115392,16.804505,02287C00,0,
02301001,La Rotella(Peugeot),"",41.123252,16.822895,02301001,0,
02363001,Molise-Regioni,"",41.122852,16.795335,02363001,0,
02408002,Pacifico-Leotta,"",41.126352,16.800795,02408002,0,
02516004,"Troccoli, 6F fronte","",41.124852,16.782535,02516004,0,
02516107,Troccoli (metrò),"",41.124962,16.783085,02516107,0,
02549001,Veneto-Verona,"",41.121042,16.789575,02549001,0,
02564001,Zippitelli-buozzi,"",41.108802,16.822405,02564001,0,
03094001,S.Caterina(FAVER),"",41.089292,16.822085,03094001,0,
03101102,Conservatorio,"",41.116273,16.857805,03101102,0,
03124104,Polipark,"",41.108533,16.856825,03124104,0,
03198101,Dell'Andro-Bartolo,"",41.096143,16.856165,03198101,0,
03279102,Tridente,"",41.107233,16.868315,03279102,0,
03279103,Giov.XXIII-Nitti,"",41.107233,16.864205,03279103,0,
03285001,Don Guanella fronte,"",41.090543,16.865915,03285001,0,
03285007,Petroni-San Michele,"",41.103823,16.867145,03285007,0,
03285010,Petroni-Piave,"",41.108923,16.867745,03285010,0,
03285105,Petroni(mercato),"",41.106263,16.867665,03285105,0,
03285107,Petroni-Kennedy,"",41.101523,16.867175,03285107,0,
03298001,J.F. Kennedy VI,"",41.101213,16.861575,03298001,0,
03299001,Kennedy-L.King,"",41.100993,16.859205,03299001,0,
03331002,Unieuro,"",41.097252,16.832985,"",0,
03436102,Piemonte II,"",41.117622,16.793025,03436102,0,
03462001,Baridomani,"",41.090042,16.827925,03462001,0,
03479103,Aulisio 17,"",41.101182,16.834335,"",0,
04102001,Ceglie(cimitero),"",41.056103,16.870225,04102001,0,
04102101,Ceglie (AMIU),"",41.054400,16.873300,04102101,0,
04104101,SP70-Vitt. Veneto,"",41.043413,16.863395,04104101,0,
04132001,Crispi-Valenzano,"",41.041323,16.847445,04132001,0,
04219002,Di Cillo,"",41.073393,16.857105,04219002,0,
04285102,Petroni 129A,"",41.085933,16.865225,04285102,0,
04362101,Minervini 21,"",41.042673,16.851515,04362101,0,
04367101,Nuzzi-Zaccaria,"",41.046333,16.850755,04367101,0,
04443101,Manzari (scuola),"",41.066803,16.873035,04443101,0,
04513001,Liuzzi (Enel),"",41.051493,16.855425,04513001,0,
04513105,Liuzzi 111,"",41.059143,16.859425,04513105,0,
04513107,Liuzzi 71,"",41.069300,16.862600,04513107,0,
04513110,Liuzzi-Chiancone,"",41.061663,16.860415,04513110,0,
04525102,Umberto 64,"",41.073433,16.870395,04525102,0,
04528005,Umberto I 88-90,"",41.064323,16.868855,04528005,0,
04559001,Vittorio Emanuele 15,"",41.064373,16.866265,04559001,0,
05021102,Archimede 10,"",41.103183,16.904695,05021102,0,
05021105,Archimede-Appulo,"",41.104723,16.900955,05021105,0,
05027102,Bari 27,"",41.085600,16.996900,05027102,0,
05078002,Carabellese 10,"",41.107273,16.906915,05078002,0,
05118C00,Conenna Cap.,"",41.102433,16.934285,05118C00,0,
05144101,D'Avanzo II,"",41.103813,16.909225,05144101,0,
05221101,Lung. Abbrescia I,"",41.109263,16.931295,05221101,0,
05221103,Lung. Abbrescia V,"",41.111493,16.918575,05221103,0,
05221104,Torre Quetta I,"",41.113003,16.912485,05221104,0,
05252101,Fenicia-Morelli,"",41.083894,17.001676,05252101,0,
05273002,Gentile-Colella,"",41.109233,16.908325,05273002,0,
05273003,Gentile-Loiacono,"",41.108000,16.911500,05273003,0,
05273004,Reg. Puglia fronte,"",41.107193,16.913625,05273004,0,
05273101,Via Gentile (Bellavista),"",41.102973,16.924555,05273101,0,
05282001,Lung. Giovine II,"",41.107063,16.935125,05282001,0,
06009103,Amendola-Omodeo,"",41.107973,16.885095,06009103,0,
06009107,Ospedale Pediatrico,"",41.099503,16.889125,06009107,0,
06061001,Caduti Lavoro III,"",41.089343,16.897605,06061001,0,
06061101,Caduti Lavoro IV,"",41.090103,16.899495,06061101,0,
06138103,B. Croce-Bottalico,"",41.112433,16.872145,06138103,0,
06138104,B.Croce-Molfalcone,"",41.110800,16.872000,06138104,0,
06186002,Dei Mille II,"",41.117123,16.876175,06186002,0,
06195003,Resistenza (park),"",41.105800,16.875000,06195003,0,
06211103,Repubblica-Fiore,"",41.110673,16.873745,06211103,0,
06249001,Fanelli 228N,"",41.083433,16.886635,06249001,0,
06249107,Fanelli (distributore),"",41.087900,16.884500,06249107,0,
06402002,Omodeo-Amendola,"",41.107063,16.884455,06402002,0,
06402102,Omodeo-Salvemini,"",41.106273,16.882245,06402102,0,
06447002,Re David (Politecnico),"",41.110123,16.876745,06447002,0,
07081101,P.za  Carabellese,"",41.120413,16.878835,07081101,0,
07090101,Carulli-Abbrescia,"",41.120193,16.875335,07090101,0,
07222002,Crollalana-Diaz,"",41.122603,16.878665,07222002,0,
07222003,Crollalanza-Eroi,"",41.125073,16.873965,07222003,0,
07288101,I. Traiano-Guarnieri,"",41.116103,16.893955,07288101,0,
07288102,Imp. Traiano,"",41.116883,16.889685,07288102,0,
07381003,N.Sauro (Forestale),"",41.119793,16.887495,07381003,0,
07381103,Reg. Puglia fronte,"",41.121343,16.882725,07381103,0,
07511C00,P&R Pane&Pomodoro,"",41.116613,16.898635,07511C00,0,
08003001,Adriatico (CTO),"",41.136622,16.843575,08003001,0,
08126102,Crisanzio-S.Visconti,"",41.119500,16.863700,08126102,0,
08267001,Garibaldi-V.Emanuele,"",41.125433,16.862945,08267001,0,
08276001,Giordano-Verdi,"",41.136182,16.834945,08276001,0,
08311101,Libertà-Don Bosco,"",41.119953,16.856235,08311101,0,
08354101,Mazzini-Bottego,"",41.125253,16.853835,08354101,0,
08378008,Napoli 316,"",41.127402,16.845825,08378008,0,
08378009,Napoli-Paoli,"",41.127292,16.848455,08378009,0,
08378107,Napoli (casa riposo),"",41.129900,16.832400,08378107,0,
08441104,Q.Sella-Crisanzio,"",41.119853,16.864655,08441104,0,
08504101,Fiore (Necropoli),"",41.125812,16.847515,08504101,0,
08546104,V.Westerhout-Casavola,"",41.135522,16.826665,08546104,0,
09126101,Crisanzio (Ateneo),"",41.119783,16.868125,09126101,0,
09217102,S.Chiara fronte,"",41.131333,16.867705,09217102,0,
09289103,Stazione Marittima,"",41.132563,16.868035,09289103,0,
09291001,Italia-De Rossi,"",41.118463,16.866275,09291001,0,
09295104,Ferrarese,"",41.127143,16.872495,09295104,0,
09351C01,Massari (A),"",41.126673,16.866085,09351C01,0,
09435002,Piccinni-Cavour,"",41.125433,16.871565,09435002,0,
09556002,V.Emanuele-Melo,"",41.126113,16.870735,09556002,0,
10072001,Ospedale PS(S.Paolo),"",41.119052,16.783395,10072001,0,
10183103,Gerani (Pimespo),"",41.109892,16.774785,10183103,0,
POL00001,Polipark Policlinico,"",41.109853,16.856635,"",0,
05282004,lung Giovine VIII,"",41.102300,16.946500,05282004,0,
05282005,lung Giovine X,"",41.100903,16.949956,05282005,0,
05282102,lung.  Giovine  III,"",41.100800,16.950100,05282102,0,
05336101,Interesse II,"",41.093453,16.959326,05336101,0,
05342102,M. Grecia-Caldarola,"",41.110903,16.890985,05342102,0,
05414002,Papalia(ASL),"",41.106573,16.903925,05414002,0,
05432006,"via Peucetia, A6","",41.109763,16.898535,05432006,0,
05432103,Peucetia-M.Grecia,"",41.112773,16.893575,05432103,0,
05474003,Salapia-Siponto,"",41.110063,16.894715,05474003,0,
05477001,S.Giorgio Marina,"",41.094613,16.961866,05477001,0,
05510102,Toscanini-Suglia,"",41.104273,16.912445,05510102,0,
06045003,Conte Giusso-Tupputi,"",41.093853,16.889605,06045003,0,
06045102,Conte  Giusso-Bovio,"",41.093853,16.886205,06045102,0,
06061002,Caduti Lavoro V,"",41.090103,16.899575,06061002,0,
06162003,De Gasperi (scuola),"",41.091753,16.870095,06162003,0,
06162006,"De Gasperi, 296","",41.097863,16.871065,06162006,0,
06162104,De Gasperi-Lonigro,"",41.100103,16.871365,06162104,0,
06195C01,P&R 2 Giugno,"",41.105400,16.875100,06195C01,0,
06211003,d' Italia-Galiani,"",41.112063,16.873715,06211003,0,
06235003,Einaudi-Resistenza,"",41.100853,16.876985,06235003,0,
06235104,Einaudi(chiesa),"",41.100893,16.877025,06235104,0,
06249004,Fanelli(caserma CC),"",41.096993,16.882075,06249004,0,
06249005,Fanelli-str. Barone,"",41.099713,16.880325,06249005,0,
06249106,Fanelli (Green Park),"",41.091493,16.883615,06249106,0,
06402101,Omodeo (Campus),"",41.107100,16.884400,06402101,0,
06405101,Orabona (Politecnico),"",41.107523,16.878285,06405101,0,
06439001,Postiglione-Dei Mille,"",41.112683,16.878025,06439001,0,
06439102,Postiglione-Pisacane,"",41.112563,16.877175,06439102,0,
06447001,ReDavid (Poliba),"",41.108233,16.877355,06447001,0,
06473001,Salvemini-Orabona,"",41.106883,16.881245,06473001,0,
06499101,Sturzo-B.Croce,"",41.107000,16.873300,06499101,0,
06509102,Tridente,"",41.100673,16.885175,06509102,0,
06531002,d' Italia-Pisanelli,"",41.116103,16.873315,06531002,0,
07381102,INPS fronte,"",41.120623,16.885025,07381102,0,
07434101,Poerio,"",41.117163,16.888135,07434101,0,
08129003,Crispi(tribunale),"",41.123623,16.856175,08129003,0,
08129102,Crispi-Ravanas,"",41.124363,16.858105,08129102,0,
08156101,De Cristoforis-Crispi,"",41.123783,16.856245,08156101,0,
08291001,Italia-Figoroa,"",41.117913,16.857605,08291001,0,
08366101,Mons.Nitti-Don Bosco,"",41.119933,16.854155,08366101,0,
08378002,Napoli (autoclub),"",41.133782,16.819355,08378002,0,
08378007,Genio Militare,"",41.127542,16.842955,08378007,0,
08378109,Napoli-Costa,"",41.133792,16.819735,08378109,0,
08435001,Garibaldi-Visconti,"",41.124973,16.863825,08435001,0,
08490102,"Q.Sella, 141","",41.121513,16.864505,08490102,0,
08546001,San Girolamo-Cilea,"",41.135552,16.825445,08546001,0,
08546003,lido trampolino,"",41.135252,16.829015,08546003,0,
08555001,Verdi (Fiera),"",41.135142,16.835095,08555001,0,
08561007,Park Veneto fronte,"",41.128063,16.855665,08561007,0,
08561106,GdF fronte,"",41.129912,16.850585,08561106,0,
09153001,De Cesare,"",41.118933,16.869195,09153001,0,
09351001,Prefettura,"",41.126263,16.866815,09351001,0,
09561101,Anagrafe fronte,"",41.128633,16.863565,09561101,0,
10012101,Ancona-Gerani,"",41.111500,16.788400,10012101,0,
10177C00,Oleandri (Bosch),"",41.106800,16.785200,10177C00,0,
10183001,Gerani-Ortensie,"",41.109832,16.774075,10183001,0,
10183102,Gerani (Brovedani),"",41.110100,16.781700,10183102,0,
10205103,Magnolie (R. Puglia),"",41.109612,16.766805,10205103,0,
10205105,Magnolie (Merck Serono),"",41.109442,16.762015,10205105,0,
10466101,SP1(Acmei),"",41.100812,16.810785,10466101,0,
01075102,Capruzzi-Sorrentino,"",41.117093,16.870315,01075102,0,
01087101,Caravella-Delle Mimose,"",41.159572,16.737435,01087101,0,
01143003,Aereounatica Militare,"",41.146372,16.778605,"",0,
01339002,"Macchie, ang. vico ii macchie","",41.146612,16.772285,"",0,
01378005,Napoli-Lembo,"",41.163552,16.745615,01378005,0,
01378110,Napoli-Caladoria,"",41.165512,16.736605,01378110,0,
01384003,Nazionale (ponte) I,"",41.153142,16.773765,01384003,0,
01384006,Nazionale (Ponte) II,"",41.153152,16.773745,01384006,0,
02002002,Accolti Gil (AIA),"",41.119832,16.809535,02002002,0,
02002003,Accolti Gil-Fuzio,"",41.120212,16.812435,02002003,0,
02024001,Buozzi (Garofalo),"",41.106262,16.819945,02024001,0,
02024003,Buozzi (distributore),"",41.110422,16.826815,02024003,0,
02024102,Buozzi-Cheren,"",41.117000,16.838500,02024102,0,
02024104,Buozzi-str. Deserto,"",41.112172,16.829625,02024104,0,
02024105,Buozzi-Boggiano,"",41.110112,16.826255,02024105,0,
02037001,Bonomo-De Benedictis,"",41.130702,16.798805,02037001,0,
02048105,Massa(Mercato),"",41.128912,16.782315,02048105,0,
02057102,Cacudi-De Ribera,"",41.127742,16.791455,02057102,0,
02150104,De Blasio-Jacobini,"",41.114552,16.805365,02150104,0,
02174102,De Ribera-Regioni,"",41.123142,16.791255,02174102,0,
02200101,Murari (exCalabrese),"",41.104592,16.812195,02200101,0,
02202001,Pioneri-Melisurgo,"",41.105962,16.804445,02202001,0,
02202101,Camelie (SKF),"",41.108982,16.796635,02202101,0,
02202102,Camelie (Italutensili),"",41.107342,16.801495,02202102,0,
02206101,Mimose (Agrilevante),"",41.108700,16.788700,02206101,0,
02210001,Regioni(Don Milani),"",41.121672,16.788025,02210001,0,
02210101,Regioni-Miglionico,"",41.123172,16.797605,02210101,0,
02234001,Distaso-Don Gnocchi,"",41.129792,16.788805,02234001,0,
02234002,Don Gnocchi I,"",41.130602,16.787745,02234002,0,
02240002,Europa-Cacudi,"",41.129862,16.795595,02240002,0,
02240110,Europa-Cacudi,"",41.129902,16.795605,02240110,0,
02240111,Europa(GdF),"",41.133922,16.787015,02240111,0,
02290001,Granieri-Pugliese,"",41.126432,16.795155,02290001,0,
02301002,La Rotella-Europa,"",41.123900,16.825200,02301002,0,
02301102,La Rotella(Peugeot),"",41.123242,16.822705,02301102,0,
02408001,Mazzoni-Candura,"",41.126012,16.799625,02408001,0,
02516101,"Troccoli, 18B","",41.127412,16.780455,02516101,0,
02564101,Zippitelli VI,"",41.116042,16.822265,02564101,0,
02564102,Zippitelli IV,"",41.109382,16.819715,02564102,0,
03051C00,Parco Domingo,"",41.092303,16.854255,03051C00,0,
03094002,S. Caterina(campetti),"",41.090792,16.823155,03094002,0,
03120101,"C. Vaticano II, 35/A","",41.104783,16.865025,03120101,0,
03124001,Cotugno (Angiulli),"",41.107713,16.856535,03124001,0,
03237C00,Policlinico,"",41.112773,16.862075,03237C00,0,
03270101,Bellomo-M.Losacco,"",41.105963,16.850655,03270101,0,
03285006,Petroni-Kennedy,"",41.101583,16.867205,03285006,0,
03285012,Caserma Rossani,"",41.115600,16.868700,03285012,0,
03285104,Petroni-Giov. XXIII,"",41.107553,16.867725,03285104,0,
03285110,Petroni(Osp. Mil),"",41.096093,16.867515,03285110,0,
03309001,Lazio-Toscana,"",41.119412,16.792485,03309001,0,
03328102,Fac. Economia,"",41.096233,16.854415,03328102,0,
03348001,King-Che Guevara,"",41.100553,16.859025,03348001,0,
03348101,King-Che Guevara,"",41.100683,16.857505,03348101,0,
03417105,Pasteur-Sangiorgi,"",41.113513,16.852755,03417105,0,
04034C00,Parco Adria,"",41.079752,16.833525,04034C00,0,
04102002,Ceglie 55,"",41.054300,16.873500,04102002,0,
04102C00,Agronomico,"",41.051700,16.878800,04102C00,0,
04159106,De Filippo III,"",41.075400,16.854600,04159106,0,
04162102,De Gasperi 463,"",41.088173,16.869385,04162102,0,
04171002,De Marinis-Ponte,"",41.076623,16.870305,04171002,0,
04171102,De Marinis-Padova,"",41.076913,16.870275,04171102,0,
04253002,Ferrigni-Lama del Duca,"",41.074193,16.854715,04253002,0,
04253101,Contrada Ferrigni,"",41.074233,16.854905,04253101,0,
04285101,Petroni-Dalla Chiesa,"",41.088783,16.865595,04285101,0,
04367C00,Don Nuzzi,"",41.045103,16.850745,04367C00,0,
04426001,Perrone (chiesa),"",41.043963,16.850235,04426001,0,
04443102,Quaranta 7,"",41.065513,16.872125,04443102,0,
04456101,Umberto I 9,"",41.066000,16.868600,04456101,0,
04513010,Liuzzi 18,"",41.078933,16.862355,04513010,0,
04513103,Liuzzi-Di Cillo,"",41.072513,16.861595,04513103,0,
04562101,Zaccaria,"",41.045913,16.852585,04562101,0,
05018101,Appulo-Archimede,"",41.104563,16.900695,05018101,0,
05021003,"Archimede, 19","",41.103833,16.903125,05021003,0,
05027001,Bari 26,"",41.086384,16.991876,05027001,0,
05097001,Cavalieri V. Veneto I,"",41.108243,16.895635,05097001,0,
05114102,"Compl.  Est, Telecom","",41.097313,16.939376,05114102,0,
05144001,D'Avanzo I,"",41.104553,16.907245,05144001,0,
05144002,D'Avanzo III,"",41.103813,16.909125,05144002,0,
05216106,Strada  Marina XIII,"",41.096154,16.966956,05216106,0,
05243101,Abate Eustasio I,"",41.095283,16.955586,05243101,0,
05252C00,Fenicia cap.,"",41.083374,17.001616,05252C00,0,
05273006,Gentile-Quintavalle,"",41.104333,16.920995,05273006,0,
01069101,Capitaneo-Nazionale,"",41.158162,16.762145,01069101,0,
01096003,str.Catino(Stadio),"",41.153202,16.734505,01096003,0,
01135101,Colombo-Marconi,"",41.163962,16.748765,01135101,0,
01142001,Duca D'Aosta-Guelfi,"",41.153600,16.768000,01142001,0,
01143004,D'Annunzio (CPT),"",41.144062,16.778635,01143004,0,
01143101,Aereounatica Militare,"",41.146502,16.778565,01143101,0,
01226002,Diaz-Duca D'Aosta,"",41.153112,16.767615,01226002,0,
01251001,Aeroporto,"",41.133802,16.763405,01251001,0,
01310C00,Lealta',"",41.148792,16.737065,01310C00,0,
01378008,"Napoli, 6/b","",41.160792,16.755925,01378008,0,
01378009,"Napoli, 6/A","",41.160212,16.758125,01378009,0,
01378109,Napoli-Pansini,"",41.164962,16.739395,01378109,0,
01378111,"Napoli, 233/C","",41.166172,16.733585,01378111,0,
01384004,Nazionale (IPSIA) II,"",41.151862,16.776525,01384004,0,
01515104,Torricella-P. Pasquale,"",41.146682,16.742685,01515104,0,
01562104,V.Veneto-Palasciano,"",41.154482,16.765165,01562104,0,
02002101,Accolti Gil-Fuzio,"",41.120202,16.812135,02002101,0,
02002103,Accolti Gil (Eurospin),"",41.119272,16.806045,02002103,0,
02024006,Buozzi-Cheren,"",41.117032,16.838645,02024006,0,
02057004,Cacudi-D'Alesio,"",41.126262,16.786285,02057004,0,
02057005,Cacudi(farmacia),"",41.125712,16.788835,02057005,0,
02057101,Cacudi(I.Scolastico),"",41.129100,16.794500,02057101,0,
02112101,Columbo (RFI),"",41.120632,16.821945,02112101,0,
02123001,Corigliano-Lindemann,"",41.122472,16.817575,02123001,0,
02141101,D'Alesio II,"",41.127272,16.786675,02141101,0,
02150004,De Blasio-F. Philips,"",41.114552,16.805585,02150004,0,
02174001,De Ribera-Regioni,"",41.123072,16.791285,02174001,0,
02174002,De Ribera-Giaquinto,"",41.125122,16.791575,02174002,0,
02174004,Polifunzionale P.S.,"",41.126392,16.791685,02174004,0,
02200001,Margherite (Firestone),"",41.103222,16.796145,02200001,0,
02200104,Margherite (Dalmine),"",41.101862,16.792555,02200104,0,
02210105,Regioni-Giaquinto,"",41.123082,16.795475,02210105,0,
02234003,Don Gnocchi II,"",41.130752,16.786105,02234003,0,
02240004,Europa-Mazzoni,"",41.124972,16.798485,02240004,0,
02240101,Europa-Buozzi,"",41.118212,16.839705,02240101,0,
02242101,Variante Europa II,"",41.124322,16.822525,02242101,0,
02246001,F.lli Philips,"",41.113200,16.805600,02246001,0,
02301101,La Rotella-Europa,"",41.123762,16.825185,02301101,0,
02315101,.................,"",41.121732,16.816255,02315101,0,
02315102,Fuzio-Accolti Gil,"",41.119632,16.815285,02315102,0,
02437101,Puglia-Molise,"",41.121372,16.796965,02437101,0,
02512101,Tramonte(Perotti),"",41.128282,16.797625,02512101,0,
02549102,-Veneto-Alessandria,"",41.119562,16.791095,02549102,0,
03072102,Ospedale(S.Paolo),"",41.117552,16.781005,03072102,0,
03094004,S. Caterina I,"",41.098872,16.830275,03094004,0,
03094C00,S. Caterina cap.,"",41.098772,16.829035,03094C00,0,
03120001,Concilio-Innocenzo,"",41.102153,16.864875,03120001,0,
03124101,Cotugno-Flacco,"",41.107413,16.859275,03124101,0,
03168005,"De Laurentis, 4","",41.100533,16.864815,03168005,0,
03168101,"De Laurentis, 3","",41.100283,16.864625,03168101,0,
03232101,Don Guanella,"",41.094693,16.861815,03232101,0,
03237101,Ennio-Capruzzi,"",41.116343,16.862675,03237101,0,
03270002,Bitritto-Frati,"",41.099673,16.845505,03270002,0,
03270104,Bitritto-Partipilo,"",41.099573,16.845365,03270104,0,
03285102,Petroni 41D,"",41.112600,16.868500,03285102,0,
03285103,Petroni-Montegrappa,"",41.109533,16.867765,03285103,0,
03285106,Petroni-Urbano VI,"",41.103813,16.867095,03285106,0,
03285108,Petroni-L.King,"",41.100233,16.867335,03285108,0,
03285112,Petroni (chiesa),"",41.090400,16.865800,03285112,0,
03321003,Lucarelli- Laurentis,"",41.093133,16.862555,03321003,0,
03321102,Lucarelli- Guanella,"",41.093173,16.862015,03321102,0,
03321103,Lucarelli (Portici),"",41.093193,16.859935,03321103,0,
03364101,Mitolo,"",41.091300,16.861200,03364101,0,
03417102,"Pasteur, centro commerciale","",41.110933,16.853135,"",0,
03417106,Pasteur(Coop),"",41.110963,16.853135,03417106,0,
03471001,Salandra I,"",41.113173,16.863405,03471001,0,
03478104,S. Girolamo-Don Cesare,"",41.135922,16.822535,03478104,0,
03478106,Girolamo-Tomasicchio,"",41.136922,16.816365,03478106,0,
03484101,S.  l'Africano 207,"",41.111263,16.864515,03484101,0,
03507003,Torre Tresca III,"",41.098383,16.848225,03507003,0,
04093001,Cascia 14,"",41.067773,16.855735,04093001,0,
04093002,Cascia-Roccaporena,"",41.070203,16.855635,04093002,0,
04093101,Cascia-S.Rita,"",41.067493,16.855745,04093101,0,
04104001,SP70-Vitt. Veneto,"",41.043353,16.863415,04104001,0,
04249C00,Madonna delle Grazie,"",41.077678,16.885473,04249C00,0,
04285001,Petroni 132/H,"",41.085583,16.865225,04285001,0,
04320101,SP45-Giacobelli,"",41.041183,16.852755,04320101,0,
04367001,Nuzzi-Zaccaria,"",41.046400,16.850700,04367001,0,
04462101,Stadio S.Nicola,"",41.087113,16.839935,04462101,0,
04483001,S. Angelo-Di Venere,"",41.065600,16.866000,04483001,0,
04513004,Liuzzi-San Gaspare,"",41.066613,16.862585,04513004,0,
04513008,Liuzzi (CC),"",41.081523,16.863755,04513008,0,
04513102,Di Venere fronte,"",41.076900,16.861400,04513102,0,
04513104,Liuzzi 95,"",41.066153,16.862255,04513104,0,
04525101,Umberto 16,"",41.074433,16.869935,04525101,0,
04528101,Umberto I 75-77,"",41.064243,16.868825,04528101,0,
04528104,Umberto I 264B fronte,"",41.059223,16.869635,04528104,0,
04540002,Vaccarella 52,"",41.071173,16.863845,04540002,0,
04550001,Veneto 80,"",41.054383,16.866725,04550001,0,
04550003,Veneto (fronte 75),"",41.058543,16.867165,04550003,0,
04550103,Veneto 75,"",41.058613,16.867125,04550103,0,
05060103,Partigiani-Salapia,"",41.109013,16.894265,05060103,0,
05114101,Complanare  Est 132,"",41.095023,16.945126,05114101,0,
05121101,Coppa di Bari,"",41.082314,17.004516,05121101,0,
05216002,strada Marina  XII,"",41.095854,16.971366,05216002,0,
05216004,strada  Marina VIII,"",41.094814,16.977076,05216004,0,
05273109,Regione Puglia,"",41.107153,16.913805,05273109,0,
05297101,Japigia 230,"",41.111783,16.901795,05297101,0,
05300001,La Pira I,"",41.100693,16.900655,05300001,0,
05318002,Loiacono-Aquilino,"",41.107303,16.912275,05318002,0,
05342001,M.Grecia-Caldarola,"",41.110973,16.891235,05342001,0,
05342002,M.Grecia-Japigia,"",41.114223,16.893425,05342002,0,
05368101,M.Silvati-Resta,"",41.084824,17.002036,05368101,0,
05410001,Palasciano I,"",41.105253,16.921515,05410001,0,
05414101,Papalia(ASL),"",41.106513,16.904185,05414101,0,
05432003,Peucetia-M. Grecia,"",41.113353,16.891745,05432003,0,
05482001,f.lli Prayer-Gentile,"",41.099173,16.936966,05482001,0,
05489101,Scizze (Atlantide),"",41.090064,16.988006,05489101,0,
05489102,strada Marina I,"",41.092900,16.985600,05489102,0,
05500102,Suglia-Toscanini,"",41.103793,16.912685,05500102,0,
05508101,Peucetia (torrente),"",41.108100,16.900200,05508101,0,
05510101,Toscanini-Gentile,"",41.106153,16.913735,05510101,0,
06009101,Amendola-Upiani,"",41.112453,16.882015,06009101,0,
06009102,Amendola (Campus),"",41.110113,16.883825,06009102,0,
06009106,Agenzia Entrate,"",41.102483,16.887695,06009106,0,
06045002,Conte Giusso-Bovio,"",41.093823,16.886325,06045002,0,
06045103,Conte Giusso-Tupputi,"",41.093763,16.884305,06045103,0,
06162001,"De Gasperi, 326/b","",41.087703,16.869375,06162001,0,
06186003,Dei Mille III,"",41.114303,16.878445,06186003,0,
06211001,Repubblica I,"",41.108023,16.874225,06211001,0,
06223001,Di Vittorio I,"",41.107203,16.876335,06223001,0,
06235006,Einaudi-Tridente,"",41.102793,16.885325,06235006,0,
06249102,Fanelli (Vigna Laura),"",41.101853,16.879525,06249102,0,
06293002,Mater Dei,"",41.098583,16.886345,06293002,0,
06447103,Re David (Politecnico),"",41.108843,16.877005,06447103,0,
07090102,Sonnino-Carabellese,"",41.120373,16.878055,07090102,0,
07099C01,Camera Commercio,"",41.124743,16.872455,07099C01,0,
07222101,Crollalanza-Diaz,"",41.122673,16.878565,07222101,0,
07222103,Crollalanza-Eroi,"",41.125000,16.874000,07222103,0,
07381002,N.Sauro (INPS),"",41.120543,16.885115,07381002,0,
07492101,Sonnino-Matteotti,"",41.117800,16.886100,07492101,0,
07492102,Sonnino-Corfù,"",41.118500,16.884400,07492102,0,
08129105,Crispi (ponte),"",41.120823,16.848775,08129105,0,
08192101,Carboneria (giardino),"",41.125103,16.851285,08192101,0,
08378106,Napoli-Ligonzo,"",41.129052,16.835135,08378106,0,
08380101,Napoli-Cimarosa,"",41.136382,16.811555,08380101,0,
08441101,Q.Sella-Calefati,"",41.124043,16.864205,08441101,0,
08478004,San Girolamo-C.Nicola,"",41.137302,16.813895,08478004,0,
08504001,Fiore-Carboneria,"",41.125912,16.847755,08504001,0,
08546103,lido trampolino,"",41.135302,16.828835,08546103,0,
08561006,V.Veneto (GdF),"",41.129872,16.850575,08561006,0,
08561101,GdF fronte,"",41.128173,16.858635,08561101,0,
08561C02,P&R V.Veneto (A),"",41.128863,16.852325,08561C02,0,
09099103,Cavour-P.Petroni,"",41.119473,16.872695,09099103,0,
09295103,Fortino,"",41.129033,16.872905,09295103,0,
09435001,Piccinni-Roberto Bari,"",41.125223,16.868155,09435001,0,
10181001,Gladioli(cinofili),"",41.098162,16.771575,10181001,0,
10207002,Ortensie (Bosch),"",41.105852,16.776095,10207002,0,
10436002,Piemonte-Sicilia,"",41.118262,16.789715,10436002,0,
10465101,S.P. 54(CMP),"",41.108382,16.772815,10465101,0,
POL00007,Fermata 7,"",41.111843,16.860535,"",0,
01011102,Ancona (C.Arcobaleno),"",41.151502,16.736025,01011102,0,
01011103,Ancona-Iqbal Masih,"",41.151542,16.738585,01011103,0,
01069002,Capitaneo-Speranza,"",41.156072,16.761895,01069002,0,
01087001,Caravella-Primule,"",41.159600,16.737500,01087001,0,
01135102,Colombo-Savona,"",41.166932,16.746605,01135102,0,
01189001,Narcisi-Azalee,"",41.160182,16.739175,01189001,0,
01251C00,Aeroporto,"",41.133982,16.764585,01251C00,0,
01310002,Lealtà-Ancona,"",41.151212,16.736805,01310002,0,
01322101,Lozupone,"",41.145522,16.738725,01322101,0,
01378002,Napoli-Caladoria,"",41.165512,16.736465,01378002,0,
01378003,"Napoli, 208","",41.164972,16.739255,01378003,0,
01378101,Napoli B dir. Foggia,"",41.143672,16.799465,01378101,0,
01378104,"Napoli, 19","",41.160902,16.755705,01378104,0,
01379002,P. Harris I,"",41.167521,16.730695,01379002,0,
01384102,Nazionale (ponte) I,"",41.153132,16.773865,01384102,0,
01384106,Nazionale (IPSIA) I,"",41.152122,16.776005,01384106,0,
01455101,Vito Rosa-Castellucci,"",41.146032,16.741585,01455101,0,
02024007,Buozzi (ANAS),"",41.118032,16.841285,02024007,0,
02024101,Buozzi (ANAS),"",41.117912,16.840885,02024101,0,
02024103,Buozzi (Multicar),"",41.115702,16.835495,02024103,0,
02048102,Massa-Don Gnocchi,"",41.128282,16.785875,02048102,0,
02054101,Giaquinto-.V.Beethoven,"",41.124300,16.793600,02054101,0,
02072C00,Ospedale(S.Paolo),"",41.117962,16.780505,02072C00,0,
02123103,Corigliano-Lindemann,"",41.122482,16.817515,02123103,0,
02145C00,Dalfino (S. Paolo),"",41.124072,16.777695,02145C00,0,
02150005,De Blasio (ex Manif.),"",41.115300,16.809400,02150005,0,
02174101,De Ribera-Giaquinto,"",41.125022,16.791525,02174101,0,
02200C00,Margherite cap.,"",41.104962,16.814355,02200C00,0,
02240001,Europa(GdF),"",41.133862,16.786765,02240001,0,
02240005,Europa-Silicia,"",41.122922,16.801905,02240005,0,
02240007,Europa-Tesoro,"",41.123622,16.811655,02240007,0,
02240104,Europa(Lamasinata),"",41.124242,16.826245,02240104,0,
02240105,Europa-Tesoro,"",41.123672,16.811755,02240105,0,
02240107,Giudice di pace,"",41.122952,16.801815,02240107,0,
02408003,Mazzoni-Ciusa,"",41.126862,16.802475,02408003,0,
02516001,"Troccoli,12D","",41.125752,16.781135,02516001,0,
02564003,Zippitelli V,"",41.116152,16.822335,02564003,0,
02564103,Autotrend,"",41.108332,16.822755,02564103,0,
03075003,Capruzzi (portici),"",41.116903,16.867565,"",0,
03075004,Capruzzi-Albanese,"",41.116533,16.861945,03075004,0,
03120002,piazzetta dei Papi,"",41.103800,16.865300,03120002,0,
03285003,Petroni(Osp.Mil),"",41.096173,16.867555,03285003,0,
03285005,Petroni-M.L.King,"",41.100173,16.867355,03285005,0,
03285009,Petroni-Giov.XXIII,"",41.107423,16.867775,03285009,0,
03285101,Petroni-Capruzzi,"",41.115783,16.868705,03285101,0,
03298101,J.F. Kennedy I,"",41.100823,16.869205,03298101,0,
03298102,J.F. Kennedy III,"",41.101053,16.865345,03298102,0,
03298103,J.F. Kennedy V,"",41.101253,16.861475,03298103,0,
03393102,Flacco-Storelli,"",41.108633,16.860125,03393102,0,
03411002,Pio XII-Pansini,"",41.105523,16.859805,03411002,0,
03411101,Oncologico,"",41.105583,16.859785,03411101,0,
03411102,Pio XII-Favia,"",41.103143,16.859515,03411102,0,
03420101,Pasubio-Petroni,"",41.110513,16.867415,03420101,0,
03479101,Sassanelli I,"",41.099362,16.837865,03479101,0,
03479104,Aulisio 61,"",41.102152,16.834415,"",0,
03484001,S. l'Africano 284,"",41.111113,16.864665,03484001,0,
03507001,Torre Tresca I,"",41.089903,16.845335,03507001,0,
04162003,De Gasperi 334,"",41.085863,16.868955,04162003,0,
04209001,Monastero(scuola),"",41.068200,16.859400,04209001,0,
04219104,"Via di cillo, slargo","",41.073263,16.857075,"",0,
04232001,Donadonisi-Quaranta,"",41.076783,16.858105,04232001,0,
04285103,Petroni-Ranieri,"",41.084153,16.863515,04285103,0,
04320001,SP45-Minervini,"",41.041163,16.852675,04320001,0,
04456001,Roppo,"",41.067353,16.869405,04456001,0,
04513002,Liuzzi 111 fronte,"",41.059223,16.859515,04513002,0,
04513003,Liuzzi 62,"",41.064803,16.861305,04513003,0,
04540101,Vaccarella (ospedale),"",41.076243,16.864675,04540101,0,
04540102,Vaccarella-Marchiettli,"",41.071623,16.863585,04540102,0,
04550005,Via veneto 32,"",41.063083,16.866225,04550005,0,
05021002,Archimede-Appulo,"",41.104713,16.900915,05021002,0,
05021005,Archimede (Palaflorio),"",41.101913,16.907935,05021005,0,
05027003,Via bari,"",41.085494,16.997366,05027003,0,
05027004,Bari 2,"",41.085334,16.998436,05027004,0,
05063007,Caldarola (chiesa),"",41.108853,16.893055,05063007,0,
05063105,Caldarola (chiesa),"",41.108983,16.893135,05063105,0,
05063108,Mercato coperto,"",41.108023,16.895565,05063108,0,
05063C01,C.S.Polivalente (B),"",41.102093,16.910045,"",0,
05078102,Eurospin,"",41.107363,16.906945,05078102,0,
05078103,Carabellese-Papalia,"",41.106063,16.906115,05078103,0,
05117002,Complanare Majesty,"",41.098043,16.936636,05117002,0,
05117003,Complanare Ovest III,"",41.094103,16.946906,05117003,0,
05216005,strada Marina VI,"",41.094000,16.979100,05216005,0,
05221003,Lung. Abbrescia IV,"",41.111323,16.924335,05221003,0,
05243001,Abate Eustasio II,"",41.095323,16.955676,05243001,0,
05144102,D'Avanzo IV,"",41.104743,16.906855,05144102,0,
05216001,strada  Marina XIV,"",41.096184,16.966756,05216001,0,
05216003,strada Marina X,"",41.095400,16.972800,05216003,0,
05216006,strada Marina IV,"",41.093954,16.983476,05216006,0,
05221002,Lung. Abbrescia VI,"",41.111463,16.918865,05221002,0,
05273001,Gentile (Sacrario),"",41.110523,16.904995,05273001,0,
05282101,lung.  Giovine I,"",41.097300,16.956200,05282101,0,
05282103,lung  Giovine V,"",41.102473,16.946396,05282103,0,
05282104,lung. Giovine VII,"",41.104103,16.942616,05282104,0,
05282106,Lido Trullo,"",41.107103,16.935075,05282106,0,
05297003,Japigia (Suzuki),"",41.111803,16.901665,05297003,0,
05336001,Interesse I,"",41.093300,16.959400,05336001,0,
05349101,Masaniello-Oberdan,"",41.116823,16.886425,05349101,0,
05414004,Papalia-Marzabotto,"",41.107423,16.901845,05414004,0,
05440001,Quasimodo-Alpini,"",41.106063,16.919295,05440001,0,
05440101,Quasimodo-Alpini,"",41.106053,16.919245,05440101,0,
05477101,"Strada s. giorgio, civ. 46","",41.095763,16.961986,"",0,
05477102,S. Giorgio-Bari,"",41.093383,16.961706,05477102,0,
05500002,Suglia(parco),"",41.103000,16.916100,05500002,0,
05500003,Suglia-Toscanini,"",41.103673,16.912905,05500003,0,
05508001,Peucetia (torrente),"",41.108033,16.900185,05508001,0,
05510001,Toscanini-Caldarola,"",41.102913,16.911565,05510001,0,
06009003,Amendola(Ospedale),"",41.099773,16.889055,06009003,0,
06009105,Amendola-Eiunaudi,"",41.103700,16.887100,06009105,0,
06045101,Conte Giusso-Fanelli,"",41.093903,16.889345,06045101,0,
06061102,Caduti  Lavoro VI,"",41.089313,16.897385,06061102,0,
06162002,"De Gasperi, 320/B","",41.089933,16.869785,"",0,
06162009,"De Gasperi, 270","",41.103783,16.871695,06162009,0,
06162101,De Gasperi (Carcere),"",41.105933,16.871645,06162101,0,
06162106,De Gasperi-La Sorsa,"",41.096693,16.870875,06162106,0,
06195002,Resistenza(parco),"",41.102883,16.875825,06195002,0,
06211102,Repubblica-Volta,"",41.112283,16.873555,06211102,0,
06211104,Repubblica-Armenise,"",41.108443,16.873975,06211104,0,
06223101,Di Vittorio II,"",41.107433,16.876685,06223101,0,
06235105,Einaudi-Resistenza,"",41.100593,16.872365,06235105,0,
06249103,Fanelli-str. Barone,"",41.100233,16.880035,06249103,0,
06249104,Fanelli (C.Vitrani),"",41.097100,16.882000,06249104,0,
06405001,S. Marcello,"",41.107513,16.878375,06405001,0,
06473101,Salvemini-Omodeo,"",41.106663,16.881135,06473101,0,
06505C00,Torre di Mizzo,"",41.091600,16.899100,06505C00,0,
06519001,Tupputi-Giusso,"",41.093653,16.890225,06519001,0,
07075001,Capruzzi-Lattanzio,"",41.117473,16.876785,07075001,0,
07222001,Crollalanza-Bruno,"",41.123733,16.876385,07222001,0,
07324101,L. di Savoia,"",41.119643,16.873925,07324101,0,
07381101,Forestale fronte,"",41.119593,16.888265,07381101,0,
07492103,Sonnino-Addis Abeba,"",41.119500,16.881700,07492103,0,
07511101,Pane&Pomodoro,"",41.117500,16.892400,07511101,0,
08156001,De Cristoforis-Crispi,"",41.124033,16.856255,08156001,0,
08278006,Napoli-Di Maratona,"",41.127862,16.838845,08278006,0,
08333101,M. D'Otranto-Italia,"",41.118463,16.855395,08333101,0,
08378006,Napoli (Caserma),"",41.127882,16.838765,08378006,0,
08378108,Napoli-Corrado,"",41.132682,16.823475,08378108,0,
08446001,Portoghese I,"",41.130532,16.839265,08446001,0,
08446101,Portoghese II,"",41.130582,16.839155,08446101,0,
08561004,Anagrafe,"",41.128563,16.863285,08561004,0,
08561102,V.Veneto-Brigata,"",41.128693,16.852695,08561102,0,
09099104,Cavour-Putignani,"",41.123813,16.872235,09099104,0,
09357001,Melo-Caduti via Fani,"",41.119263,16.871785,09357001,0,
09369101,Bari Centrale(D),"",41.118683,16.869465,09369101,0,
09369C01,Bari Centrale(A),"",41.118463,16.869755,09369C01,0,
10183002,Gerani (Mondo Conv.),"",41.110082,16.781495,10183002,0,
10205006,Magnolie (poste),"",41.109662,16.769545,10205006,0,
10205101,Magnolie (MCTC),"",41.110100,16.771700,10205101,0,
10207003,Ortensie (Pimespo),"",41.107572,16.774745,10207003,0,
10208101,Orchidee,"",41.101300,16.784900,10208101,0,
99090987,Cecilia Metro,"",41.117242,16.786875,99090987,0,
POL00004,Fermata 4,"",41.110523,16.860935,"",0,
POL00006,Fermata 6,"",41.111463,16.861615,"",0,
POL00013,Fermata 13,"",41.110573,16.857235,"",0,
01011101,Ancona-Green,"",41.151662,16.738595,01011101,0,
01096002,"str. Catino, 22","",41.158932,16.740265,01096002,0,
01096101,st. Catino-Azalee,"",41.158900,16.740300,01096101,0,
01096102,str.Catino (Stadio),"",41.153062,16.734415,01096102,0,
01143002,D'Annunzio (Aereoporto),"",41.140212,16.778635,01143002,0,
01353001,via iqbal masih scuola,"",41.149432,16.738875,"",0,
01378004,"Napoli, 178/D","",41.164252,16.742675,01378004,0,
01378007,"Napoli, 14","",41.161682,16.752655,01378007,0,
01378011,Napoli B dir. Bari,"",41.142922,16.799305,01378011,0,
01378016,Napoli A dir. Bari,"",41.140072,16.803345,01378016,0,
01379001,P. Harris I,"",41.167501,16.730675,01379001,0,
01384101,Nazionale (IPSIA) I,"",41.152132,16.775965,01384101,0,
01387101,N. Green IV,"",41.156862,16.741575,01387101,0,
01388101,Nisio-Mitolo,"",41.152782,16.770285,01388101,0,
01529001,Umberto I-Livorno,"",41.162952,16.751445,01529001,0,
02024005,Buozzi-Glomerelli,"",41.115672,16.835505,02024005,0,
02024107,Buozzi (Garofalo),"",41.106252,16.819855,02024107,0,
02030101,Barisano-Cozzoli,"",41.125622,16.795825,02030101,0,
02065001,Candura-Mazzoni,"",41.127732,16.803465,02065001,0,
02103101,Ciusa-Ricchioni,"",41.128272,16.802005,02103101,0,
02150001,De Blasio ( Radaelli),"",41.111292,16.791855,02150001,0,
02150101,De Blasio (CNR),"",41.116100,16.820900,02150101,0,
02150102,Vitalvernici,"",41.116282,16.812735,02150102,0,
02150106,Puglia Espansi,"",41.112702,16.796895,02150106,0,
02206102,Mimose (Amenduni),"",41.103622,16.789415,02206102,0,
02210003,Regioni-Europa,"",41.123100,16.798900,02210003,0,
02240102,Europa-Ascianghi,"",41.122662,16.834585,02240102,0,
02240106,Europa(ex Pirelli),"",41.123262,16.804275,02240106,0,
02240108,Europa-Mazzoni,"",41.125052,16.798475,02240108,0,
02315002,Fuzio (AMIU),"",41.119482,16.815355,02315002,0,
02345001,Pagano-Crispi,"",41.120873,16.849885,02345001,0,
02360001,Miglionico-Regioni,"",41.123442,16.796945,02360001,0,
02360002,Miglionico-Barisano,"",41.125372,16.796875,02360002,0,
02516108,"Troccoli, 14A","",41.127222,16.780665,02516108,0,
03075102,Capruzzi-Ennio,"",41.116713,16.864175,03075102,0,
03094003,S. Caterina -SS.16,"",41.093722,16.827325,03094003,0,
03124103,Cotugno-Mazzitelli,"",41.107713,16.853395,03124103,0,
03168001,De Laurentis-Lucarelli,"",41.093493,16.864255,03168001,0,
03168104,"De Laurentis, 19/21","",41.095003,16.864205,03168104,0,
03227001,Dioguardi (tribunale),"",41.096383,16.862195,03227001,0,
03279001,Giov.XXIII-Lioce,"",41.107093,16.864015,03279001,0,
03285111,Petroni-Pende,"",41.093983,16.866635,03285111,0,
03314001,Lembo-Petroni,"",41.113323,16.868135,03314001,0,
03321001,Lucarelli-Rosalba,"",41.093493,16.854795,03321001,0,
03393001,Flacco-De Ferraris,"",41.108293,16.860115,03393001,0,
03436003,Piemonte I,"",41.117572,16.792995,03436003,0,
03471002,Salandra II,"",41.115123,16.864245,03471002,0,
03507002,Torre Tresca II,"",41.095763,16.847875,03507002,0,
04022C00,Autostr.BA-TA,"",41.068300,16.830200,04022C00,0,
04038001,compl.EST-Bitritto,"",41.076372,16.831805,04038001,0,
04132C00,Crispi (Loseto),"",41.042600,16.847700,04132C00,0,
04157101,De Curtis-De Filippo,"",41.076233,16.856415,04157101,0,
04162001,De Gasperi 368,"",41.081393,16.869275,04162001,0,
04171001,De Marinis 9,"",41.074673,16.870245,04171001,0,
04171003,De Marinis 153,"",41.079143,16.870155,04171003,0,
04285002,Petroni (clinica),"",41.087493,16.865385,04285002,0,
04343101,Manzari 7,"",41.065523,16.874425,04343101,0,
04451101,Roccaporana-Scoglio,"",41.069113,16.858155,04451101,0,
04483101,S. Angelo-Settembrini,"",41.065713,16.865915,04483101,0,
04513006,Liuzzi-Di Cillo,"",41.072443,16.861675,04513006,0,
04513101,Liuzzi-Livatino,"",41.081003,16.863425,"",0,
04513106,Liuzzi (enel),"",41.051083,16.855215,04513106,0,
04513109,Liuzzi 135,"",41.078733,16.862225,04513109,0,
04525001,Umberto 77,"",41.073523,16.870945,04525001,0,
04528003,Umberto I 250A,"",41.061073,16.869385,04528003,0,
04528102,Umberto I 183,"",41.062800,16.869000,04528102,0,
04528103,Umberto I 261,"",41.061163,16.869325,04528103,0,
04540001,De Candia(INPS),"",41.067903,16.865655,04540001,0,
04558001,Veneto 176,"",41.068553,16.870145,04558001,0,
04559101,Vittorio Emanuele 41,"",41.064100,16.865700,04559101,0,
05018102,Appulo-La Pira,"",41.102783,16.899395,05018102,0,
05021001,Archimede-Caldarola,"",41.105400,16.899300,05021001,0,
05021101,Palaflorio fronte,"",41.102003,16.907775,05021101,0,
05021103,via Archimede 21,"",41.103623,16.903375,05021103,0,
05027104,Bari 35/F,"",41.086354,16.992246,05027104,0,
05060101,Assi Casa,"",41.107093,16.898835,05060101,0,
05060102,Partigiani-Protospata,"",41.108513,16.895445,05060102,0,
05063101,C.S Polivalente (C),"",41.102333,16.909935,05063101,0,
05063C00,C.S. Polivalente (A),"",41.102313,16.909985,05063C00,0,
05078001,Carabellese-Papalia,"",41.105983,16.906105,05078001,0,
05111101,Colonna- Rosa Azzurra,"",41.088064,16.989656,05111101,0,
05114103,"Complanare est ss 16, ang. str. s. anna","",41.098533,16.936826,"",0,
05114106,Complanare Est 44-46,"",41.082024,17.020486,05114106,0,
05252002,Fenicia-Bari,"",41.084384,17.000446,05252002,0,
05273005,Gentile-de Felice,"",41.105683,16.917435,05273005,0,
05273102,Gentile-Cannone,"",41.104383,16.920935,05273102,0,
05273103,Gentile-Quasimodo,"",41.105963,16.916855,05273103,0,
05273107,Gentile (Sacrario),"",41.110643,16.904735,05273107,0,
05297001,Japigia 131,"",41.113953,16.896115,05297001,0,
05300101,La Pira II,"",41.100533,16.901135,05300101,0,
05399101,Bari Marconi FS,"",41.117143,16.887005,05399101,0,
05432005,Peucetia-Salapia,"",41.111443,16.896145,05432005,0,
05432101,"Peucetia , A6 fronte","",41.110083,16.898485,05432101,0,
05440002,Quasimodo (chiesa),"",41.106413,16.920685,05440002,0,
05449001,Resta,"",41.086584,17.003476,05449001,0,
05450002,Rocca-Archimede,"",41.102393,16.905305,05450002,0,
05474101,Salapia-Peucetia,"",41.111163,16.895425,05474101,0,
05500001,Suglia-Toscanini,"",41.103633,16.913005,05500001,0,
05500004,Suglia(parco),"",41.103083,16.916115,05500004,0,
05500101,Suglia-Toscanini,"",41.103773,16.912745,05500101,0,
05510003,Toscanini-Gentile,"",41.106493,16.914005,05510003,0,
05547101,Vitale,"",41.102643,16.937536,05547101,0,
06009104,Amendola-Petrera,"",41.106000,16.886000,06009104,0,
06010001,Caduri del Lavoro I,"",41.088123,16.894665,06010001,0,
06162107,"De Gasperi, 421","",41.094600,16.870600,06162107,0,
06235004,Einaudi-Fanelli,"",41.101533,16.880475,06235004,0,
06249002,Fanelli 224,"",41.088063,16.884425,06249002,0,
06499001,Sturzo-De Gasperi,"",41.106973,16.872545,06499001,0,
06531001,d' Italia-Ciaia,"",41.114603,16.873415,06531001,0,
07023101,Ballestrero I,"",41.115703,16.895835,07023101,0,
07165001,De Giosa,"",41.121103,16.873825,07165001,0,
08003002,Adriatico-Starita,"",41.137472,16.840695,08003002,0,
08039001,Brigata Regina-Lopez,"",41.126293,16.851645,08039001,0,
08126103,Crisanzio-Trevisani,"",41.119373,16.861015,08126103,0,
08129005,Crispi-Garibaldi,"",41.125253,16.860525,08129005,0,
08129101,Crispi-Trevisani,"",41.125063,16.859985,08129101,0,
08192002,Carboneria-Regina,"",41.125083,16.851315,08192002,0,
08276002,Pinto(Fiera),"",41.137722,16.838015,08276002,0,
08276102,Fiera fronte,"",41.137742,16.838185,08276102,0,
08278007,Napoli (Genio),"",41.127552,16.842865,08278007,0,
08378004,Napoli (casa riposo),"",41.129722,16.832765,08378004,0,
08378105,Napoli-Di Maratona,"",41.127982,16.838605,08378105,0,
08454102,Romito-Perosi,"",41.137962,16.810715,08454102,0,
08478001,S. Girolamo-Fallacara,"",41.136792,16.816895,08478001,0,
08493101,Starita (CTO),"",41.134922,16.844275,08493101,0,
08546004,V. Westerhout(Pineta),"",41.134952,16.831255,08546004,0,
08555101,Verdi(S.Francesco),"",41.135600,16.834000,08555101,0,
08561003,Ist. d'Arte,"",41.128093,16.857435,08561003,0,
08561103,AQP fronte,"",41.133600,16.844600,08561103,0,
09015001,Ateneo,"",41.121113,16.869005,09015001,0,
09099101,Cavour-Piccinni,"",41.125033,16.872105,09099101,0,
09099102,Cavour-Beatillo,"",41.121100,16.872500,09099102,0,
09217002,Porto fronte,"",41.132393,16.868795,09217002,0,
09289C01,Varco Dogana,"",41.133400,16.869300,09289C01,0,
09556101,V.Emanuele (giardino),"",41.126143,16.870875,09556101,0,
POL00003,Fermata 3,"",41.110273,16.859625,"",0,
01069001,Capitaneo-Ranieri,"",41.154432,16.761275,01069001,0,
01069102,Capitaneo-Speranza,"",41.156192,16.761885,01069102,0,
01087003,Caravella-Azalee,"",41.159072,16.737525,01087003,0,
01096001,str. Catino(Cimitero),"",41.155842,16.735715,01096001,0,
01142002,Duca D'Aosta-Capitano,"",41.155442,16.768705,01142002,0,
01143102,D'Annunzio (Aeroporto),"",41.140752,16.778615,01143102,0,
01250101,Felicità (Mercato),"",41.146900,16.737700,01250101,0,
01310101,Vito Rosa (materna),"",41.145242,16.737735,01310101,0,
01353102,via Iqbal Masih,"",41.151042,16.739145,01353102,0,
01378001,"Napoli, 234/E","",41.166122,16.733645,01378001,0,
01378102,Napoli C dir. Foggia,"",41.146462,16.792285,01378102,0,
01378103,"Napoli, 11","",41.160212,16.758225,01378103,0,
01378108,Napoli-Malta,"",41.164272,16.742775,01378108,0,
01384001,Nazionale (ASL),"",41.158092,16.763695,01384001,0,
01384007,Nazionale (IPSIA) II,"",41.151800,16.776600,01384007,0,
01387102,N. Green II,"",41.155022,16.740525,01387102,0,
01562102,V.Veneto-Palasciano,"",41.154542,16.765195,01562102,0,
02048003,Massa(Parco Verde),"",41.128600,16.787300,02048003,0,
02048104,Massa-Troccoli,"",41.126902,16.783335,02048104,0,
02057002,Cacudi(I.Scolastico),"",41.129100,16.794200,02057002,0,
02057103,Cacudi-Castelluccio,"",41.127100,16.789300,02057103,0,
02150103,De Blasio-Milella,"",41.115232,16.809065,02150103,0,
02200003,Murari (SS.96),"",41.104312,16.810675,02200003,0,
02240009,Europa-Torre dei cani,"",41.124192,16.829325,02240009,0,
02287101,"Jacobini, amtab","",41.115392,16.804505,"",0,
02361101,......................,"",41.116672,16.803345,"",0,
02453001,Romita-Sicilia,"",41.120672,16.798195,02453001,0,
02458001,Rotondo-Cardinale,"",41.124742,16.779365,02458001,0,
02516003,"Troccoli, 6F","",41.126432,16.783155,02516003,0,
03120003,Mercato S.Scolatica,"",41.106763,16.865195,03120003,0,
03120102,"C. Vaticano II, 75","",41.102203,16.864765,03120102,0,
03168102,Laurentis-st. caffè,"",41.098683,16.864495,03168102,0,
03237102,Ennio (chiesa),"",41.113593,16.861635,03237102,0,
03279002,Giov.XXIII-Petroni,"",41.107063,16.868215,03279002,0,
03285002,Petroni-Lucarelli,"",41.093323,16.866355,03285002,0,
03285004,Petroni-C.Rotto,"",41.098603,16.867435,03285004,0,
03285008,Carcere Minorile,"",41.106193,16.867695,03285008,0,
03285109,Petroni-C.Rotto,"",41.098343,16.867435,03285109,0,
03298002,J.F. Kennedy  IV,"",41.101013,16.865525,03298002,0,
03298003,J.F. Kennedy II,"",41.100803,16.869105,03298003,0,
03314101,Lembo-Petroni,"",41.113353,16.868135,03314101,0,
03321002,Lucarelli (farmacia),"",41.093173,16.859945,03321002,0,
03417007,Pasteur-M. D'avola,"",41.113553,16.853045,03417007,0,
03478105,S. Girolamo-Puccini,"",41.136352,16.819625,03478105,0,
03479102,Sassanelli II,"",41.101072,16.835435,03479102,0,
04034102,Compl.Ovest-Bitritto,"",41.076552,16.831425,04034102,0,
04036001,Bitritto (p.co Adria),"",41.080463,16.834845,"",0,
04159101,"F.lli de filippo, civ. 1/b","",41.075413,16.854645,"",0,
04162103,De Gasperi 479,"",41.086143,16.868995,04162103,0,
04162104,De Gasperi 503,"",41.084033,16.868975,04162104,0,
04303001,Lama Del Duca 12,"",41.071503,16.855435,04303001,0,
04451001,Roccaporena-Scoglio,"",41.069083,16.858065,04451001,0,
04488101,S. Rita-Liuzzi,"",41.067400,16.862100,04488101,0,
04513007,Liuzzi(ospedale),"",41.076633,16.861425,04513007,0,
04528001,Umberto I 282,"",41.057800,16.869900,04528001,0,
04528002,Umberto I 266D,"",41.058953,16.869715,04528002,0,
04528004,Umberto I 184,"",41.062823,16.869085,04528004,0,
04528105,Umberto I 276 fronte,"",41.057793,16.869835,04528105,0,
05018001,Appulo-La Pira,"",41.102500,16.899200,05018001,0,
05018002,Appulo-Archimede,"",41.104073,16.900355,05018002,0,
05027101,Bari-Tripoli,"",41.085354,16.998516,05027101,0,
05060001,Mercato coperto,"",41.108243,16.896005,05060001,0,
05063008,Giardino Arena,"",41.107703,16.895755,05063008,0,
05078003,Carabellese-deLiguori,"",41.108233,16.907565,05078003,0,
05105001,Colella-de Liguori,"",41.108543,16.909485,05105001,0,
05114104,Complanare Est 108,"",41.099013,16.934946,05114104,0,
05117005,Borgo San Lorenzo,"",41.082384,17.015696,05117005,0,
05117006,"Complanare Ovest, 92","",41.081404,17.022236,05117006,0,
05169001,"De liguori, ang. via colella","",41.108453,16.909435,"",0,
05216105,Strada Marina XI,"",41.095934,16.971016,05216105,0,
05221004,Lung. Abbrescia II,"",41.109173,16.931335,05221004,0,
05258002,Fontana Nuova,"",41.084704,17.005606,05258002,0,
05282002,lung Giovine IV,"",41.105313,16.938526,05282002,0,
05318003,Loiacono-Caldarola,"",41.103333,16.909215,05318003,0,
05368001,M. Silvati-Fenicia,"",41.084764,17.002216,05368001,0,
05399103,Oberdan FSE,"",41.117703,16.880725,05399103,0,
05432105,Peucetia-Pitagora,"",41.114263,16.889845,05432105,0,
05450101,Rocca-Archimede,"",41.102613,16.905415,05450101,0,
05510002,Toscanini-Suglia,"",41.104133,16.912385,05510002,0,
05563001,Trulli I,"",41.088124,17.003316,05563001,0,
05563002,Trulli II,"",41.086974,17.005106,05563002,0,
06009005,Caserma Magrone,"",41.104043,16.886985,06009005,0,
06009007,Amendola-Omodeo,"",41.107703,16.885255,06009007,0,
05216008,strada Marina II,"",41.093674,16.984476,05216008,0,
05216101,Strada  Marina III,"",41.093954,16.983586,05216101,0,
05216102,Strada Marina V,"",41.094100,16.979000,05216102,0,
05216103,Strada Marina VII,"",41.094924,16.976136,05216103,0,
05216104,Strada Marina IX,"",41.095254,16.973866,05216104,0,
05221001,Torre Quetta II,"",41.113783,16.910655,05221001,0,
05282003,lung Giovine VI,"",41.104193,16.942236,05282003,0,
05297002,Ordine Ing. fronte,"",41.112603,16.899585,05297002,0,
05297102,Ordine Ingegneri,"",41.112700,16.899200,05297102,0,
05305001,Lama di Giotta,"",41.087974,17.002056,05305001,0,
05318102,Loiacono-Pascazio,"",41.105503,16.910625,05318102,0,
05410101,Palasciano II,"",41.105313,16.921465,05410101,0,
05432001,Peucetia-Aristosseno,"",41.114903,16.887905,05432001,0,
05432002,Peucetia (chiesa),"",41.114163,16.889765,05432002,0,
05432102,Peucetia (poste),"",41.111903,16.895825,05432102,0,
05510103,"Toscanini, ang caldarola","",41.102773,16.911435,05510103,0,
06009004,Executive Center,"",41.102563,16.887705,06009004,0,
06009008,Amendola (Campus),"",41.110473,16.883605,06009008,0,
06009009,Amendola-C.Ulpiani,"",41.112503,16.881995,06009009,0,
06010101,Caduti del Lavoro II,"",41.087900,16.894700,06010101,0,
06138106,B. Croce-Sabotino,"",41.107763,16.871785,06138106,0,
06162004,"De Gasperi, 312","",41.094300,16.870500,06162004,0,
06162005,De Gasperi-La Sorsa,"",41.096573,16.870895,06162005,0,
06162010,"De Gasperi, 248","",41.105383,16.871655,06162010,0,
06162102,"De Gasperi, 345","",41.103963,16.871645,06162102,0,
06162103,De Gasperi-Morea,"",41.102133,16.871625,06162103,0,
06186001,Dei Mille I,"",41.115500,16.877400,06186001,0,
06235001,Einaudi-De Gasperi,"",41.100573,16.872205,06235001,0,
06235102,Einaudi-Fortunato,"",41.102033,16.882175,06235102,0,
06244001,Falcone Borsellino I,"",41.096853,16.873585,06244001,0,
06249101,Fanelli-Jacini,"",41.104200,16.878900,06249101,0,
06249C00,Madonna delle Grazie,"",41.077700,16.885500,06249C00,0,
06275001,Lojacono(Showville),"",41.090443,16.887235,06275001,0,
06293001,Hahnemann -Amendola,"",41.097803,16.888465,06293001,0,
06306102,Lattanzio - Di Savoia,"",41.114903,16.878945,06306102,0,
06447003,Re David-Postiglione,"",41.111913,16.876415,06447003,0,
06447102,Re David (ist.Panetti),"",41.110333,16.876665,06447102,0,
06531101,Unita d'Italia (CC),"",41.114723,16.873275,06531101,0,
07023102,Ballestrero II,"",41.115263,16.897825,07023102,0,
07023103,Ballestrero III,"",41.115703,16.904065,07023103,0,
07075101,Capruzzi-Mola,"",41.117533,16.877295,07075101,0,
07288103,07288102,"",41.116783,16.890085,07288103,0,
08040001,B.Regina-Nicolai,"",41.120513,16.852145,08040001,0,
08129004,Crispi-Ravanas,"",41.124553,16.858705,08129004,0,
08129103,Crispi (tribunale),"",41.123633,16.856095,08129103,0,
08229C00,Piscine Comunali,"",41.133400,16.837600,08229C00,0,
08378001,Napoli(uscita 4),"",41.135622,16.811775,08378001,0,
08378101,Napoli-Canudo,"",41.127200,16.850200,08378101,0,
08441103,Q. Sella-Italia,"",41.119203,16.864725,08441103,0,
08454001,Romito (SS16),"",41.138300,16.808800,08454001,0,
08490101,"via Q. Sella, 51","",41.124013,16.864105,08490101,0,
08493001,Starita (CUS),"",41.135462,16.844405,08493001,0,
08546102,V.Westerhout(Pineta),"",41.134962,16.831335,08546102,0,
08561C01,P&R V.Veneto (B),"",41.128823,16.852395,08561C01,0,
09295102,Arco S. Nicola,"",41.130863,16.871245,09295102,0,
10072002,Ospedale(S.Paolo),"",41.117622,16.781165,10072002,0,
10205005,Magnolie (R. Puglia),"",41.109572,16.766685,10205005,0,
10466001,S.P. 1 (N. Pignone),"",41.099312,16.808395,10466001,0,
POL00005,Fermata 5,"",41.111023,16.861705,"",0,
01135005,"Lung. c. colombo, lido","",41.169200,16.732100,01135005,0,
01135103,Colombo-Dalmazia,"",41.167462,16.745095,01135103,0,
01233001,Europa (P.co Principi),"",41.133032,16.778865,01233001,0,
01310102,Lealtà-Ancona,"",41.150932,16.736795,"",0,
01339003,"Macchie, ang. vico xv macchie","",41.146072,16.775415,"",0,
01378107,"Napoli, 167","",41.163500,16.745800,01378107,0,
01379101,P. Harris II,"",41.167361,16.730595,01379101,0,
01384002,Nazionale (Park Hotel),"",41.155282,16.769715,01384002,0,
01384104,Nazionale (ASL),"",41.158202,16.763525,01384104,0,
01388001,Nisio-Diaz,"",41.152772,16.770185,01388001,0,
01455102,V.Rosa-Pisicchio,"",41.144932,16.739585,01455102,0,
01502001,Ten. Ranieri-Priolo,"",41.153712,16.764165,01502001,0,
01502101,Ten. Ranieri-Priolo,"",41.153712,16.764345,01502101,0,
01562101,V.Veneto-Sabotino,"",41.156100,16.765900,01562101,0,
02024106,Vill. dei Lavoratori,"",41.107762,16.822335,02024106,0,
02030102,Barisano-Granieri,"",41.125352,16.792205,02030102,0,
02072101,Ospedale PS(S. Paolo),"",41.119092,16.783375,02072101,0,
02150007,De Blasio (BariMax),"",41.116222,16.820415,02150007,0,
02200004,Margherite (Dalmine),"",41.102152,16.793265,02200004,0,
02202002,Camelie (Italutensili),"",41.107402,16.800905,02202002,0,
02234004,Don Gnocchi III,"",41.129082,16.785935,02234004,0,
02240103,Europa-Sopramarzo,"",41.124222,16.829105,02240103,0,
02309002,Lazio-Puglia,"",41.119752,16.795995,02309002,0,
02315001,Lindemann-Melisurgo,"",41.107000,16.808900,02315001,0,
02361001,......................,"",41.116692,16.803555,02361001,0,
02363102,Molise(scuola),"",41.121362,16.796425,02363102,0,
02408101,Mazzoni-Ciusa,"",41.126872,16.802385,02408101,0,
02424101,Pugliese-Barisano,"",41.125832,16.794995,02424101,0,
02453101,Romita(Chiesa),"",41.119932,16.795755,02453101,0,
02512001,Tramonte(Perotti),"",41.128312,16.797805,02512001,0,
02543001,Val d'Aosta-Piemonte,"",41.118402,16.787895,02543001,0,
02549101,Veneto-Lombardia,"",41.121002,16.789525,02549101,0,
02553001,Vittime di guerra,"",41.125512,16.784465,02553001,0,
02564002,Zippitelli III,"",41.109132,16.819755,02564002,0,
03075001,Capruzzi(binari),"",41.116853,16.866695,03075001,0,
03075101,Capruzzi(portici),"",41.116883,16.866785,03075101,0,
03124102,"Cotugno, 15","",41.107693,16.856925,03124102,0,
03168002,"De Laurentis, 14","",41.095203,16.864385,03168002,0,
03168003,De Laurentis-Carrante,"",41.096793,16.864505,03168003,0,
03168004,"De Laurentis, 6","",41.098703,16.864675,03168004,0,
03168105,De Laurentis-Lucarelli,"",41.093453,16.864085,03168105,0,
03270103,Bellomo ( chiesa),"",41.101200,16.847800,03270103,0,
03331003,Poltronesofà,"",41.096492,16.835555,"",0,
03393002,Flacco-Zuccaro,"",41.110643,16.861805,03393002,0,
03420001,Pasubio-Petroni,"",41.110483,16.867475,03420001,0,
04093102,Cascia-Roccaporena,"",41.069673,16.855615,04093102,0,
04162105,De Gasperi 515,"",41.081313,16.869235,04162105,0,
04220001,Di Venere (ospedale),"",41.076943,16.863455,04220001,0,
04232102,Donadonisi-Quaranta,"",41.076833,16.858105,04232102,0,
04284101,Gorizia,"",41.064633,16.873545,04284101,0,
04426101,Perrone 11,"",41.044023,16.850195,04426101,0,
04540103,De Candia(INPS),"",41.067903,16.865625,04540103,0,
04550002,"Veneto, 76","",41.056863,16.867455,04550002,0,
04550101,Veneto 29/C,"",41.063123,16.866175,04550101,0,
04558002,Veneto (Ist. Diaz),"",41.071013,16.871575,04558002,0,
04558102,Veneto (scuola),"",41.068000,16.869700,04558102,0,
05021106,Archimede-Caldarola,"",41.105703,16.899495,05021106,0,
05027103,Bari (scuola),"",41.085844,16.995266,05027103,0,
05060002,Partigiani-Peucetia,"",41.106963,16.899105,05060002,0,
05060003,Partigiani-Salapia,"",41.108983,16.894265,05060003,0,
05063102,Caldarola-Peucetia,"",41.106613,16.898875,05063102,0,
05105101,Colella-Gentile,"",41.108483,16.909185,05105101,0,
05111001,Colonna 16,"",41.088144,16.989536,05111001,0,
05114107,Complanare Est 30,"",41.082800,17.015000,05114107,0,
05117001,Complanare  Ovest I,"",41.099333,16.933145,05117001,0,
05117004,Complanare Ovest V,"",41.082554,17.008376,05117004,0,
05221102,Lung. Abbrescia III,"",41.111353,16.924065,05221102,0,
05252001,Fenicia slargo,"",41.081754,17.000336,05252001,0,
05273105,Gentile-Colella,"",41.107900,16.911700,05273105,0,
05282105,lung. Giovine IX,"",41.105283,16.938646,05282105,0,
05297103,Japigia- Accolti Gil,"",41.113913,16.896285,05297103,0,
05318001,Loiacono-Pascazio,"",41.105573,16.910705,05318001,0,
05318101,Loiacono-Aquilino,"",41.107233,16.912175,05318101,0,
05399002,Oberdan-Caldarola,"",41.117683,16.881715,05399002,0,
05399003,Oberdan-Bersaglieri,"",41.117493,16.884495,05399003,0,
05414001,Papalia-Marzabotto,"",41.107433,16.901815,05414001,0,
05432004,Peucetia-Daunia,"",41.112603,16.893425,05432004,0,
05432104,Peucetia-Archita,"",41.113733,16.891205,05432104,0,
05432106,Peucetia-Apulia,"",41.115083,16.887745,05432106,0,
05450102,Rocca- La Pira,"",41.099900,16.903700,05450102,0,
06009010,Amendola-Cirillo,"",41.114853,16.880075,06009010,0,
06009110,.,"",41.091033,16.893065,06009110,0,
05273106,Gentile-T.Diavolol,"",41.109433,16.907865,05273106,0,
05282006,lung  Giovine XII,"",41.097513,16.956126,05282006,0,
05297104,Japigia-Caduti,"",41.114800,16.893900,05297104,0,
05399102,Oberdan-Schiralli,"",41.117563,16.884125,05399102,0,
05414005,Papalia(ASL),"",41.106553,16.903965,05414005,0,
05414103,Papalia(ASL),"",41.106513,16.904185,05414103,0,
05450001,Rocca (Ecopoli),"",41.100000,16.903700,05450001,0,
05482101,f.lli Prayer-Gentile,"",41.099033,16.936826,05482101,0,
05489001,"Scizze, civ. 12","",41.092494,16.986186,"",0,
05489002,Scizze (Atlantide),"",41.089994,16.987996,05489002,0,
06006001,Alberotanza,"",41.095763,16.871695,06006001,0,
06009002,Amendola-SS100,"",41.096793,16.890455,06009002,0,
06009006,Amendola-cavalcavia,"",41.105953,16.886075,06009006,0,
06009108,Amendola-SS100,"",41.096613,16.890495,06009108,0,
06045001,Conte Giusso-Fanelli,"",41.093743,16.884415,06045001,0,
06138102,B.Croce-Ciaia,"",41.115203,16.872335,06138102,0,
06138105,Chiesa Russa,"",41.109343,16.871925,06138105,0,
06162008,"De Gasperi, 274","",41.101993,16.871655,06162008,0,
06162105,De Gasperi-C. Rotto,"",41.098063,16.871055,06162105,0,
06211002,Repubblica II,"",41.110063,16.873955,06211002,0,
06235005,Einaudi-Turati,"",41.102073,16.882455,06235005,0,
06235101,Giulio Cesare,"",41.102833,16.885395,06235101,0,
06244002,Falcone Borsellino II,"",41.099553,16.873635,06244002,0,
06249003,Fanelli (Green Park),"",41.091153,16.883715,06249003,0,
06249105,Fanelli(Caserma CC),"",41.095893,16.882645,06249105,0,
06249108,Fanelli (Giardinelli),"",41.083543,16.886505,06249108,0,
06519002,Tupputi (VV.F.),"",41.091213,16.889845,06519002,0,
07222102,Crollalanza-Bruno,"",41.123600,16.876600,07222102,0,
07324002,"Piazza l. di savoia, chiesa s. antonio","",41.119053,16.874235,07324002,0,
07324C00,"L.di Savoia, 7","",41.119683,16.873925,07324C00,0,
07381001,N.Sauro (Provincia),"",41.121563,16.881965,07381001,0,
08003102,Adriatico-Starita,"",41.137452,16.840855,08003102,0,
08039101,Brigata Regina-Lopez,"",41.126303,16.851615,08039101,0,
08126104,Crisanzio-Ravanas,"",41.119253,16.858515,08126104,0,
08129001,Crispi-Pagano,"",41.121133,16.849605,08129001,0,
08129002,Crispi-De Bernardis,"",41.122513,16.853245,08129002,0,
08156002,De Cristoforis-Mazzini,"",41.125153,16.856165,08156002,0,
08192001,Carboneria-Dei Mille,"",41.125042,16.848905,08192001,0,
08291002,Italia-Eritrea,"",41.118233,16.862575,08291002,0,
08354001,Mazzini 136/D,"",41.125223,16.854295,08354001,0,
08354002,Bianchi Dottula,"",41.125273,16.855815,08354002,0,
08378003,Napoli (distributore),"",41.132682,16.823025,08378003,0,
08378005,Napoli (C. Briscese),"",41.128872,16.835565,08378005,0,
08378102,Napoli-Paoli,"",41.127300,16.848300,08378102,0,
08378103,Napoli-Monte Lungo,"",41.127442,16.845735,08378103,0,
08441102,Q. Sella-Dante,"",41.121513,16.864505,08441102,0,
08478002,San Girolamo-Costa,"",41.136372,16.819395,08478002,0,
08557001,Vitt.E.Orlando(AQP),"",41.133742,16.843045,08557001,0,
09015002,da Bari-Calefati,"",41.123703,16.868805,09015002,0,
09217001,Santa Chiara,"",41.131403,16.867775,09217001,0,
09217003,Castello Svevo,"",41.128883,16.865345,09217003,0,
09295101,S.Scolastica,"",41.131933,16.871515,09295101,0,
09351002,Giardini d'Aragona,"",41.128183,16.865205,09351002,0,
09357101,Melo-Petroni,"",41.119743,16.871715,09357101,0,
09369C00,Bari Centrale (B),"",41.118300,16.869500,09369C00,0,
10177101,Oleandri(Bosch),"",41.106862,16.785255,10177101,0,
10183003,Gerani(Partner),"",41.110200,16.784700,10183003,0,
10183101,Gerani (Esseciline),"",41.110232,16.784855,10183101,0,
10205003,Magnolie (fed.Ex.),"",41.109402,16.761885,10205003,0,
10207001,Ortensie (M. Marelli),"",41.103112,16.778115,10207001,0,
10213101,Violette (TIM),"",41.104972,16.766775,10213101,0,
10431101,Petunie,"",41.102172,16.766885,10431101,0,
10466003,SP1(OI manifacturing),"",41.103100,16.814800,10466003,0,
10466102,Nuovo Pignone,"",41.099472,16.808585,10466102,0,
POL00002,Fermata 2,"",41.110083,16.858615,"",0,
POL00008,Fermata 8,"",41.112943,16.861145,"",0,
POL00010,Fermata 10,"",41.112783,16.858735,"",0,
POL00011,Fermata 11,"",41.112533,16.857305,"",0,
